[{"city":"Abohar ","state_name":"Punjab","lat":30.1452928,"lon":74.1993043,"effective_literacy_rate_total":79.86,"rank":84.5},{"city":"Achalpur ","state_name":"Maharashtra","lat":21.257584,"lon":77.5086754,"effective_literacy_rate_total":91.99,"rank":448.0},{"city":"Adilabad ","state_name":"Andhra Pradesh","lat":19.0809075,"lon":79.560344,"effective_literacy_rate_total":80.51,"rank":92.0},{"city":"Adityapur ","state_name":"Jharkhand","lat":22.7834741,"lon":86.1576889,"effective_literacy_rate_total":83.46,"rank":168.0},{"city":"Adoni ","state_name":"Andhra Pradesh","lat":15.6322227,"lon":77.2728368,"effective_literacy_rate_total":68.38,"rank":7.0},{"city":"Agartala ","state_name":"Tripura","lat":23.831457,"lon":91.2867777,"effective_literacy_rate_total":93.88,"rank":475.0},{"city":"Agra ","state_name":"Uttar Pradesh","lat":27.1766701,"lon":78.0080745,"effective_literacy_rate_total":63.44,"rank":4.0},{"city":"Ahmadabad ","state_name":"Gujarat","lat":23.022505,"lon":72.5713621,"effective_literacy_rate_total":89.62,"rank":376.0},{"city":"Ahmadnagar ","state_name":"Maharashtra","lat":19.0952075,"lon":74.7495916,"effective_literacy_rate_total":91.49,"rank":437.0},{"city":"Aizawl ","state_name":"Mizoram","lat":23.727107,"lon":92.7176389,"effective_literacy_rate_total":98.8,"rank":493.0},{"city":"Ajmer ","state_name":"Rajasthan","lat":26.4498954,"lon":74.6399163,"effective_literacy_rate_total":87.53,"rank":302.0},{"city":"Akbarpur ","state_name":"Uttar Pradesh","lat":26.4407468,"lon":82.5537514,"effective_literacy_rate_total":76.94,"rank":47.5},{"city":"Akola ","state_name":"Maharashtra","lat":20.7059345,"lon":77.0219019,"effective_literacy_rate_total":91.34,"rank":433.0},{"city":"Alandur ","state_name":"Tamil Nadu","lat":12.9974873,"lon":80.2006371,"effective_literacy_rate_total":95.15,"rank":486.0},{"city":"Alappuzha ","state_name":"Kerala","lat":9.4980667,"lon":76.3388484,"effective_literacy_rate_total":96.56,"rank":489.0},{"city":"Aligarh ","state_name":"Uttar Pradesh","lat":27.8973944,"lon":78.0880129,"effective_literacy_rate_total":70.36,"rank":13.0},{"city":"Allahabad ","state_name":"Uttar Pradesh","lat":25.4358011,"lon":81.846311,"effective_literacy_rate_total":86.5,"rank":263.0},{"city":"Alwar ","state_name":"Rajasthan","lat":27.5529907,"lon":76.6345735,"effective_literacy_rate_total":86.78,"rank":275.0},{"city":"Ambala ","state_name":"Haryana","lat":30.3781788,"lon":76.7766974,"effective_literacy_rate_total":88.23,"rank":330.0},{"city":"Ambala Sadar ","state_name":"Haryana","lat":30.3248708,"lon":76.8432663,"effective_literacy_rate_total":87.97,"rank":321.5},{"city":"Ambarnath ","state_name":"Maharashtra","lat":19.1825167,"lon":73.1926023,"effective_literacy_rate_total":89.04,"rank":358.0},{"city":"Ambattur ","state_name":"Tamil Nadu","lat":13.1143167,"lon":80.1480551,"effective_literacy_rate_total":92.69,"rank":457.0},{"city":"Ambikapur ","state_name":"Chhattisgarh","lat":23.1354921,"lon":83.1817856,"effective_literacy_rate_total":88.2,"rank":327.0},{"city":"Ambur ","state_name":"Tamil Nadu","lat":12.7903613,"lon":78.7166084,"effective_literacy_rate_total":86.83,"rank":278.0},{"city":"Amravati ","state_name":"Maharashtra","lat":20.9374238,"lon":77.7795513,"effective_literacy_rate_total":93.03,"rank":462.0},{"city":"Amreli ","state_name":"Gujarat","lat":21.6031774,"lon":71.2220832,"effective_literacy_rate_total":89.47,"rank":372.0},{"city":"Amritsar ","state_name":"Punjab","lat":31.6339793,"lon":74.8722642,"effective_literacy_rate_total":85.27,"rank":220.0},{"city":"Amroha ","state_name":"Uttar Pradesh","lat":28.9043537,"lon":78.4673426,"effective_literacy_rate_total":63.88,"rank":5.0},{"city":"Anand ","state_name":"Gujarat","lat":22.5645175,"lon":72.928871,"effective_literacy_rate_total":93.71,"rank":472.0},{"city":"Anantapur ","state_name":"Andhra Pradesh","lat":14.6818877,"lon":77.6005911,"effective_literacy_rate_total":81.88,"rank":127.0},{"city":"Anantnag ","state_name":"Jammu and Kashmir","lat":33.7311255,"lon":75.1487007,"effective_literacy_rate_total":78.95,"rank":69.0},{"city":"Arrah ","state_name":"Bihar","lat":25.5560443,"lon":84.6603307,"effective_literacy_rate_total":83.41,"rank":165.5},{"city":"Asansol ","state_name":"West Bengal","lat":23.6739452,"lon":86.9523954,"effective_literacy_rate_total":84.82,"rank":205.0},{"city":"Ashoknagar Kalyangarh ","state_name":"West Bengal","lat":22.84039,"lon":88.6241351,"effective_literacy_rate_total":92.45,"rank":455.0},{"city":"Aurangabad ","state_name":"Bihar","lat":24.7457189,"lon":84.3804888,"effective_literacy_rate_total":86.89,"rank":281.5},{"city":"Aurangabad ","state_name":"Maharashtra","lat":19.8761653,"lon":75.3433139,"effective_literacy_rate_total":89.13,"rank":363.0},{"city":"Avadi ","state_name":"Tamil Nadu","lat":13.1067448,"lon":80.0969511,"effective_literacy_rate_total":88.63,"rank":343.0},{"city":"Azamgarh ","state_name":"Uttar Pradesh","lat":26.0737044,"lon":83.1859458,"effective_literacy_rate_total":86.43,"rank":258.0},{"city":"Badlapur ","state_name":"Maharashtra","lat":19.1667854,"lon":73.2367896,"effective_literacy_rate_total":92.38,"rank":454.0},{"city":"Bagaha ","state_name":"Bihar","lat":27.1221959,"lon":84.0722375,"effective_literacy_rate_total":60.67,"rank":2.0},{"city":"Bagalkot ","state_name":"Karnataka","lat":16.1725355,"lon":75.6557206,"effective_literacy_rate_total":86.15,"rank":250.0},{"city":"Bahadurgarh ","state_name":"Haryana","lat":28.6924464,"lon":76.9239727,"effective_literacy_rate_total":88.04,"rank":324.0},{"city":"Baharampur ","state_name":"West Bengal","lat":24.0988265,"lon":88.2679264,"effective_literacy_rate_total":90.29,"rank":398.0},{"city":"Bahraich ","state_name":"Uttar Pradesh","lat":27.7525271,"lon":81.4278984,"effective_literacy_rate_total":75.03,"rank":33.0},{"city":"Baidyabati ","state_name":"West Bengal","lat":22.795783,"lon":88.3190717,"effective_literacy_rate_total":89.08,"rank":361.0},{"city":"Baleshwar Town ","state_name":"Orissa","lat":21.4869337,"lon":86.9246005,"effective_literacy_rate_total":88.79,"rank":350.0},{"city":"Ballia ","state_name":"Uttar Pradesh","lat":25.7584381,"lon":84.1487319,"effective_literacy_rate_total":86.62,"rank":268.5},{"city":"Bally ","state_name":"West Bengal","lat":22.6500518,"lon":88.3423199,"effective_literacy_rate_total":83.39,"rank":162.0},{"city":"Bally City","state_name":"West Bengal","lat":22.6500518,"lon":88.3423199,"effective_literacy_rate_total":90.14,"rank":390.0},{"city":"Balurghat ","state_name":"West Bengal","lat":25.2372834,"lon":88.7830612,"effective_literacy_rate_total":91.85,"rank":445.0},{"city":"Banda ","state_name":"Uttar Pradesh","lat":25.4796224,"lon":80.3380213,"effective_literacy_rate_total":83.3,"rank":157.0},{"city":"Bankura ","state_name":"West Bengal","lat":23.2324146,"lon":87.0786044,"effective_literacy_rate_total":87.27,"rank":293.0},{"city":"Bansberia ","state_name":"West Bengal","lat":22.951904,"lon":88.4070629,"effective_literacy_rate_total":85.73,"rank":234.0},{"city":"Banswara ","state_name":"Rajasthan","lat":23.5461394,"lon":74.4349761,"effective_literacy_rate_total":86.98,"rank":284.5},{"city":"Baran ","state_name":"Rajasthan","lat":25.1011438,"lon":76.5131637,"effective_literacy_rate_total":81.19,"rank":110.0},{"city":"Baranagar ","state_name":"West Bengal","lat":22.6383016,"lon":88.3654386,"effective_literacy_rate_total":92.46,"rank":456.0},{"city":"Barasat ","state_name":"West Bengal","lat":22.7228159,"lon":88.480552,"effective_literacy_rate_total":90.42,"rank":402.5},{"city":"Baraut ","state_name":"Uttar Pradesh","lat":29.0998902,"lon":77.2606149,"effective_literacy_rate_total":77.98,"rank":57.0},{"city":"Barddhaman ","state_name":"West Bengal","lat":23.2324214,"lon":87.8614793,"effective_literacy_rate_total":89.07,"rank":360.0},{"city":"Bareilly ","state_name":"Uttar Pradesh","lat":28.3670355,"lon":79.4304381,"effective_literacy_rate_total":70.17,"rank":11.0},{"city":"Baripada Town ","state_name":"Orissa","lat":21.9322338,"lon":86.7516942,"effective_literacy_rate_total":89.31,"rank":368.0},{"city":"Barnala ","state_name":"Punjab","lat":30.3819446,"lon":75.5467979,"effective_literacy_rate_total":79.59,"rank":78.0},{"city":"Barrackpur ","state_name":"West Bengal","lat":22.7674278,"lon":88.3883455,"effective_literacy_rate_total":89.33,"rank":370.0},{"city":"Barshi ","state_name":"Maharashtra","lat":18.2333856,"lon":75.6941478,"effective_literacy_rate_total":86.47,"rank":262.0},{"city":"Basirhat ","state_name":"West Bengal","lat":22.6574017,"lon":88.8671766,"effective_literacy_rate_total":88.25,"rank":332.5},{"city":"Basti ","state_name":"Uttar Pradesh","lat":26.8176796,"lon":82.7633133,"effective_literacy_rate_total":85.29,"rank":221.0},{"city":"Batala ","state_name":"Punjab","lat":31.8183238,"lon":75.2070644,"effective_literacy_rate_total":85.49,"rank":227.0},{"city":"Bathinda ","state_name":"Punjab","lat":30.210994,"lon":74.9454745,"effective_literacy_rate_total":82.84,"rank":146.0},{"city":"Beawar ","state_name":"Rajasthan","lat":26.1007337,"lon":74.3190747,"effective_literacy_rate_total":85.96,"rank":246.0},{"city":"Begusarai ","state_name":"Bihar","lat":25.416675,"lon":86.1293792,"effective_literacy_rate_total":79.35,"rank":75.0},{"city":"Belgaum ","state_name":"Karnataka","lat":15.8496953,"lon":74.4976741,"effective_literacy_rate_total":90.49,"rank":405.0},{"city":"Bellary ","state_name":"Karnataka","lat":15.1393932,"lon":76.9214428,"effective_literacy_rate_total":78.26,"rank":62.0},{"city":"Bengaluru","state_name":"Karnataka","lat":12.9716,"lon":77.5946,"effective_literacy_rate_total":89.59,"rank":374.0},{"city":"Bettiah ","state_name":"Bihar","lat":26.8028048,"lon":84.5169757,"effective_literacy_rate_total":82.54,"rank":138.0},{"city":"Betul ","state_name":"Madhya Pradesh","lat":21.9108031,"lon":77.9011842,"effective_literacy_rate_total":90.27,"rank":395.5},{"city":"Bhadrak ","state_name":"Orissa","lat":21.0582737,"lon":86.4958396,"effective_literacy_rate_total":80.88,"rank":100.5},{"city":"Bhadravati ","state_name":"Karnataka","lat":13.8329901,"lon":75.7080727,"effective_literacy_rate_total":86.6,"rank":266.5},{"city":"Bhadreswar ","state_name":"West Bengal","lat":22.8275529,"lon":88.3456516,"effective_literacy_rate_total":86.89,"rank":281.5},{"city":"Bhagalpur ","state_name":"Bihar","lat":25.3478004,"lon":86.9824288,"effective_literacy_rate_total":81.16,"rank":108.0},{"city":"Bhalswa Jahangir Pur ","state_name":"Delhi","lat":28.757322,"lon":77.1544,"effective_literacy_rate_total":76.94,"rank":47.5},{"city":"Bharatpur ","state_name":"Rajasthan","lat":27.216981,"lon":77.489515,"effective_literacy_rate_total":82.13,"rank":133.0},{"city":"Bharuch ","state_name":"Gujarat","lat":21.7051358,"lon":72.9958748,"effective_literacy_rate_total":87.66,"rank":309.0},{"city":"Bhatpara ","state_name":"West Bengal","lat":22.8562412,"lon":88.406454,"effective_literacy_rate_total":85.86,"rank":242.5},{"city":"Bhavnagar ","state_name":"Gujarat","lat":21.7644725,"lon":72.1519304,"effective_literacy_rate_total":85.62,"rank":232.0},{"city":"Bhilai Nagar ","state_name":"Chhattisgarh","lat":21.1938475,"lon":81.3509416,"effective_literacy_rate_total":87.23,"rank":292.0},{"city":"Bhilwara ","state_name":"Rajasthan","lat":25.321377,"lon":74.586953,"effective_literacy_rate_total":84.27,"rank":185.0},{"city":"Bhimavaram ","state_name":"Andhra Pradesh","lat":16.544893,"lon":81.521241,"effective_literacy_rate_total":83.41,"rank":165.5},{"city":"Bhind ","state_name":"Madhya Pradesh","lat":26.4450034,"lon":78.7476208,"effective_literacy_rate_total":84.2,"rank":184.0},{"city":"Bhiwadi ","state_name":"Rajasthan","lat":28.2088218,"lon":76.8445999,"effective_literacy_rate_total":80.67,"rank":94.5},{"city":"Bhiwandi ","state_name":"Maharashtra","lat":19.2812547,"lon":73.0482912,"effective_literacy_rate_total":81.53,"rank":115.0},{"city":"Bhiwani ","state_name":"Haryana","lat":28.7751693,"lon":75.9927652,"effective_literacy_rate_total":84.39,"rank":191.5},{"city":"Bhopal ","state_name":"Madhya Pradesh","lat":23.2599333,"lon":77.412615,"effective_literacy_rate_total":85.24,"rank":218.5},{"city":"Bhubaneswar Town ","state_name":"Orissa","lat":20.2960587,"lon":85.8245398,"effective_literacy_rate_total":93.15,"rank":464.0},{"city":"Bhuj ","state_name":"Gujarat","lat":23.2419997,"lon":69.6669324,"effective_literacy_rate_total":87.5,"rank":300.5},{"city":"Bhusawal ","state_name":"Maharashtra","lat":21.0455204,"lon":75.8010962,"effective_literacy_rate_total":90.37,"rank":400.5},{"city":"Bid ","state_name":"Maharashtra","lat":18.9890893,"lon":75.7600785,"effective_literacy_rate_total":88.56,"rank":339.0},{"city":"Bidar ","state_name":"Karnataka","lat":17.9148799,"lon":77.5046101,"effective_literacy_rate_total":87.65,"rank":308.0},{"city":"Bidhan Nagar ","state_name":"West Bengal","lat":22.5867296,"lon":88.4170988,"effective_literacy_rate_total":90.44,"rank":404.0},{"city":"Biharsharif ","state_name":"Bihar","lat":25.1982147,"lon":85.5148735,"effective_literacy_rate_total":74.8,"rank":31.0},{"city":"Bijapur ","state_name":"Karnataka","lat":16.8301708,"lon":75.710031,"effective_literacy_rate_total":83.43,"rank":167.0},{"city":"Bikaner ","state_name":"Rajasthan","lat":28.0229348,"lon":73.3119159,"effective_literacy_rate_total":79.86,"rank":84.5},{"city":"Bilaspur ","state_name":"Chhattisgarh","lat":22.0796251,"lon":82.1391412,"effective_literacy_rate_total":88.76,"rank":348.5},{"city":"Bokaro Steel City ","state_name":"Jharkhand","lat":23.6692956,"lon":86.151112,"effective_literacy_rate_total":84.94,"rank":209.0},{"city":"Bongaon ","state_name":"West Bengal","lat":23.0440381,"lon":88.827703,"effective_literacy_rate_total":90.25,"rank":394.0},{"city":"Botad ","state_name":"Gujarat","lat":22.1704232,"lon":71.6684269,"effective_literacy_rate_total":83.21,"rank":155.0},{"city":"Brahmapur Town ","state_name":"Orissa","lat":19.3149618,"lon":84.7940911,"effective_literacy_rate_total":90.04,"rank":389.0},{"city":"Budaun ","state_name":"Uttar Pradesh","lat":28.0337088,"lon":79.1205419,"effective_literacy_rate_total":73.0,"rank":20.0},{"city":"Bulandshahr ","state_name":"Uttar Pradesh","lat":28.406963,"lon":77.8498292,"effective_literacy_rate_total":78.98,"rank":70.0},{"city":"Bundi ","state_name":"Rajasthan","lat":25.4305144,"lon":75.6499025,"effective_literacy_rate_total":83.15,"rank":154.0},{"city":"Burari ","state_name":"Delhi","lat":28.7535212,"lon":77.1948241,"effective_literacy_rate_total":88.81,"rank":351.5},{"city":"Burhanpur ","state_name":"Madhya Pradesh","lat":21.3193875,"lon":76.2224273,"effective_literacy_rate_total":81.7,"rank":121.5},{"city":"Buxar ","state_name":"Bihar","lat":25.4987785,"lon":84.1435136,"effective_literacy_rate_total":85.16,"rank":215.5},{"city":"Champdani ","state_name":"West Bengal","lat":22.8049456,"lon":88.3409338,"effective_literacy_rate_total":82.39,"rank":137.0},{"city":"Chandannagar ","state_name":"West Bengal","lat":22.8647723,"lon":88.36326,"effective_literacy_rate_total":90.62,"rank":408.0},{"city":"Chandausi ","state_name":"Uttar Pradesh","lat":28.4480507,"lon":78.7796105,"effective_literacy_rate_total":72.63,"rank":19.0},{"city":"Chandigarh ","state_name":"Chandigarh","lat":30.7333148,"lon":76.7794179,"effective_literacy_rate_total":86.77,"rank":274.0},{"city":"Chandrapur ","state_name":"Maharashtra","lat":19.9704597,"lon":79.3014845,"effective_literacy_rate_total":90.81,"rank":413.0},{"city":"Chapra ","state_name":"Bihar","lat":25.7795649,"lon":84.7498886,"effective_literacy_rate_total":81.3,"rank":112.0},{"city":"Chas ","state_name":"Jharkhand","lat":23.6388375,"lon":86.1700894,"effective_literacy_rate_total":85.12,"rank":213.0},{"city":"Chennai ","state_name":"Tamil Nadu","lat":13.0826802,"lon":80.2707184,"effective_literacy_rate_total":90.33,"rank":399.0},{"city":"Chhattarpur ","state_name":"Madhya Pradesh","lat":24.728683,"lon":79.560344,"effective_literacy_rate_total":84.57,"rank":194.5},{"city":"Chhindwara ","state_name":"Madhya Pradesh","lat":22.057437,"lon":78.9381729,"effective_literacy_rate_total":90.37,"rank":400.5},{"city":"Chikmagalur ","state_name":"Karnataka","lat":13.315258,"lon":75.7754018,"effective_literacy_rate_total":89.79,"rank":380.5},{"city":"Chilakaluripet ","state_name":"Andhra Pradesh","lat":16.0924301,"lon":80.1623948,"effective_literacy_rate_total":72.08,"rank":17.0},{"city":"Chitradurga ","state_name":"Karnataka","lat":14.2305594,"lon":76.3984537,"effective_literacy_rate_total":88.76,"rank":348.5},{"city":"Chittaurgarh ","state_name":"Rajasthan","lat":24.8887435,"lon":74.6269216,"effective_literacy_rate_total":84.96,"rank":210.0},{"city":"Chittoor ","state_name":"Andhra Pradesh","lat":13.2218054,"lon":79.1010442,"effective_literacy_rate_total":86.37,"rank":256.0},{"city":"Churu ","state_name":"Rajasthan","lat":28.3174965,"lon":74.9851678,"effective_literacy_rate_total":75.11,"rank":34.0},{"city":"Coimbatore ","state_name":"Tamil Nadu","lat":11.0168445,"lon":76.9558321,"effective_literacy_rate_total":91.74,"rank":442.5},{"city":"Cuddalore ","state_name":"Tamil Nadu","lat":11.744699,"lon":79.7680243,"effective_literacy_rate_total":88.54,"rank":338.0},{"city":"Cuttack ","state_name":"Orissa","lat":20.462521,"lon":85.8829895,"effective_literacy_rate_total":91.17,"rank":430.0},{"city":"Dabgram ","state_name":"West Bengal","lat":26.6954603,"lon":88.4415998,"effective_literacy_rate_total":73.98,"rank":24.0},{"city":"Dallo Pura ","state_name":"Delhi","lat":28.6004677,"lon":77.319462,"effective_literacy_rate_total":81.92,"rank":128.0},{"city":"Damoh ","state_name":"Madhya Pradesh","lat":23.8380986,"lon":79.4421731,"effective_literacy_rate_total":87.1,"rank":288.0},{"city":"Darbhanga ","state_name":"Bihar","lat":26.111868,"lon":85.896004,"effective_literacy_rate_total":80.88,"rank":100.5},{"city":"Darjiling ","state_name":"West Bengal","lat":27.0360066,"lon":88.2626751,"effective_literacy_rate_total":94.18,"rank":480.0},{"city":"Datia ","state_name":"Madhya Pradesh","lat":25.6653262,"lon":78.4609393,"effective_literacy_rate_total":80.54,"rank":93.0},{"city":"Davanagere ","state_name":"Karnataka","lat":14.4663438,"lon":75.9238397,"effective_literacy_rate_total":84.89,"rank":208.0},{"city":"Deesa ","state_name":"Gujarat","lat":24.2585031,"lon":72.1906721,"effective_literacy_rate_total":80.67,"rank":94.5},{"city":"Dehradun ","state_name":"Uttaranchal","lat":30.3164945,"lon":78.0321918,"effective_literacy_rate_total":89.32,"rank":369.0},{"city":"Dehri ","state_name":"Bihar","lat":24.9277351,"lon":84.1909841,"effective_literacy_rate_total":83.38,"rank":161.0},{"city":"Delhi ","state_name":"Delhi","lat":28.7041,"lon":77.1025,"effective_literacy_rate_total":87.6,"rank":307.0},{"city":"Delhi Cantonment ","state_name":"Delhi","lat":28.5961279,"lon":77.1587375,"effective_literacy_rate_total":91.11,"rank":425.0},{"city":"Deoghar ","state_name":"Jharkhand","lat":24.4763201,"lon":86.6913222,"effective_literacy_rate_total":86.8,"rank":277.0},{"city":"Deoli ","state_name":"Delhi","lat":28.4962152,"lon":77.2376414,"effective_literacy_rate_total":83.85,"rank":176.0},{"city":"Deoria ","state_name":"Uttar Pradesh","lat":26.4270039,"lon":83.804868,"effective_literacy_rate_total":88.81,"rank":351.5},{"city":"Dewas ","state_name":"Madhya Pradesh","lat":22.9622672,"lon":76.0507949,"effective_literacy_rate_total":85.83,"rank":241.0},{"city":"Dhanbad ","state_name":"Jharkhand","lat":23.7956531,"lon":86.4303859,"effective_literacy_rate_total":80.78,"rank":98.0},{"city":"Dharmavaram ","state_name":"Andhra Pradesh","lat":14.4137447,"lon":77.7126189,"effective_literacy_rate_total":71.83,"rank":16.0},{"city":"Dhaulpur ","state_name":"Rajasthan","lat":26.7025181,"lon":77.893391,"effective_literacy_rate_total":76.56,"rank":41.0},{"city":"Dhule ","state_name":"Maharashtra","lat":20.9042201,"lon":74.7748979,"effective_literacy_rate_total":89.86,"rank":382.5},{"city":"Dibrugarh ","state_name":"Assam","lat":27.4728327,"lon":94.9119621,"effective_literacy_rate_total":89.77,"rank":379.0},{"city":"Dimapur ","state_name":"Nagaland","lat":25.8629885,"lon":93.7536663,"effective_literacy_rate_total":87.48,"rank":299.0},{"city":"Dinapur Nizamat ","state_name":"Bihar","lat":25.6328264,"lon":85.0597137,"effective_literacy_rate_total":78.4,"rank":64.0},{"city":"Dindigul ","state_name":"Tamil Nadu","lat":10.3673123,"lon":77.9802906,"effective_literacy_rate_total":90.55,"rank":407.0},{"city":"Dum Dum ","state_name":"West Bengal","lat":22.6470514,"lon":88.431683,"effective_literacy_rate_total":93.51,"rank":468.0},{"city":"Durg ","state_name":"Chhattisgarh","lat":21.1904494,"lon":81.2849169,"effective_literacy_rate_total":87.94,"rank":318.0},{"city":"Durgapur ","state_name":"West Bengal","lat":23.5204443,"lon":87.3119227,"effective_literacy_rate_total":87.84,"rank":314.0},{"city":"Eluru ","state_name":"Andhra Pradesh","lat":16.7106604,"lon":81.0952431,"effective_literacy_rate_total":74.13,"rank":25.0},{"city":"English Bazar ","state_name":"West Bengal","lat":25.0108408,"lon":88.1410967,"effective_literacy_rate_total":84.69,"rank":200.0},{"city":"Erode ","state_name":"Tamil Nadu","lat":11.3410364,"lon":77.7171642,"effective_literacy_rate_total":88.39,"rank":336.0},{"city":"Etah ","state_name":"Uttar Pradesh","lat":27.5587505,"lon":78.662567,"effective_literacy_rate_total":86.43,"rank":258.0},{"city":"Etawah ","state_name":"Uttar Pradesh","lat":26.8458148,"lon":79.1096901,"effective_literacy_rate_total":82.89,"rank":147.0},{"city":"Faizabad ","state_name":"Uttar Pradesh","lat":26.7732476,"lon":82.1441643,"effective_literacy_rate_total":86.52,"rank":264.0},{"city":"Faridabad ","state_name":"Haryana","lat":28.4089123,"lon":77.3177894,"effective_literacy_rate_total":84.88,"rank":206.5},{"city":"Farrukhabad-Cum-Fatehgarh ","state_name":"Uttar Pradesh","lat":27.3826126,"lon":79.5940544,"effective_literacy_rate_total":74.92,"rank":32.0},{"city":"Fatehpur ","state_name":"Uttar Pradesh","lat":25.8499808,"lon":80.8986502,"effective_literacy_rate_total":77.69,"rank":54.0},{"city":"Firozabad ","state_name":"Uttar Pradesh","lat":27.1591006,"lon":78.3957574,"effective_literacy_rate_total":70.08,"rank":10.0},{"city":"Firozpur ","state_name":"Punjab","lat":30.9331348,"lon":74.6224755,"effective_literacy_rate_total":79.75,"rank":81.0},{"city":"Gadag-Betigeri ","state_name":"Karnataka","lat":15.4324651,"lon":75.6380337,"effective_literacy_rate_total":85.56,"rank":231.0},{"city":"Gandhidham ","state_name":"Gujarat","lat":23.075297,"lon":70.133673,"effective_literacy_rate_total":83.34,"rank":160.0},{"city":"Gandhinagar ","state_name":"Gujarat","lat":23.2156354,"lon":72.6369415,"effective_literacy_rate_total":93.7,"rank":470.5},{"city":"Ganganagar ","state_name":"Rajasthan","lat":29.9038399,"lon":73.8771901,"effective_literacy_rate_total":83.22,"rank":156.0},{"city":"Gangapur City ","state_name":"Rajasthan","lat":26.4846537,"lon":76.7278803,"effective_literacy_rate_total":79.78,"rank":82.5},{"city":"Gangawati ","state_name":"Karnataka","lat":15.431874,"lon":76.5314817,"effective_literacy_rate_total":76.58,"rank":43.0},{"city":"Gaya ","state_name":"Bihar","lat":24.7954523,"lon":84.999431,"effective_literacy_rate_total":85.74,"rank":236.5},{"city":"Ghazipur ","state_name":"Uttar Pradesh","lat":25.5840419,"lon":83.5770202,"effective_literacy_rate_total":85.46,"rank":225.5},{"city":"Giridih ","state_name":"Jharkhand","lat":24.2841482,"lon":86.0937312,"effective_literacy_rate_total":85.75,"rank":238.0},{"city":"Godhra ","state_name":"Gujarat","lat":22.7788044,"lon":73.6142795,"effective_literacy_rate_total":88.72,"rank":346.0},{"city":"Gokal Pur ","state_name":"Delhi","lat":28.703423,"lon":77.2840105,"effective_literacy_rate_total":85.24,"rank":218.5},{"city":"Gonda ","state_name":"Uttar Pradesh","lat":27.1339913,"lon":81.9618968,"effective_literacy_rate_total":81.07,"rank":105.0},{"city":"Gondal ","state_name":"Gujarat","lat":21.9619463,"lon":70.792297,"effective_literacy_rate_total":85.73,"rank":234.0},{"city":"Gondiya ","state_name":"Maharashtra","lat":21.4624491,"lon":80.2209773,"effective_literacy_rate_total":93.7,"rank":470.5},{"city":"Gorakhpur ","state_name":"Uttar Pradesh","lat":26.7605545,"lon":83.3731675,"effective_literacy_rate_total":85.97,"rank":247.5},{"city":"Greater Hyderabad ","state_name":"Andhra Pradesh","lat":17.385,"lon":78.4867,"effective_literacy_rate_total":82.96,"rank":148.5},{"city":"Greater Mumbai ","state_name":"Maharashtra","lat":19.076,"lon":72.8777,"effective_literacy_rate_total":90.28,"rank":397.0},{"city":"Greater Noida ","state_name":"Uttar Pradesh","lat":28.4743879,"lon":77.5039904,"effective_literacy_rate_total":86.54,"rank":265.0},{"city":"Gudivada ","state_name":"Andhra Pradesh","lat":16.4410255,"lon":80.9926327,"effective_literacy_rate_total":82.16,"rank":134.0},{"city":"Gulbarga ","state_name":"Karnataka","lat":17.329731,"lon":76.8342957,"effective_literacy_rate_total":83.71,"rank":173.0},{"city":"Guna ","state_name":"Madhya Pradesh","lat":24.6348197,"lon":77.2979782,"effective_literacy_rate_total":81.71,"rank":123.0},{"city":"Guntakal ","state_name":"Andhra Pradesh","lat":15.1674091,"lon":77.3736238,"effective_literacy_rate_total":75.7,"rank":38.0},{"city":"Guntur ","state_name":"Andhra Pradesh","lat":16.3066525,"lon":80.4365402,"effective_literacy_rate_total":81.11,"rank":106.0},{"city":"Gurgaon ","state_name":"Haryana","lat":28.4594965,"lon":77.0266383,"effective_literacy_rate_total":86.3,"rank":252.0},{"city":"Guwahati ","state_name":"Assam","lat":26.1445169,"lon":91.7362365,"effective_literacy_rate_total":91.11,"rank":425.0},{"city":"Gwalior ","state_name":"Madhya Pradesh","lat":26.2182871,"lon":78.1828308,"effective_literacy_rate_total":85.2,"rank":217.0},{"city":"Habra ","state_name":"West Bengal","lat":22.8488542,"lon":88.6639591,"effective_literacy_rate_total":90.85,"rank":414.0},{"city":"Hajipur ","state_name":"Bihar","lat":25.6858392,"lon":85.2145907,"effective_literacy_rate_total":79.26,"rank":74.0},{"city":"Haldia ","state_name":"West Bengal","lat":22.0666742,"lon":88.0698118,"effective_literacy_rate_total":89.06,"rank":359.0},{"city":"Haldwani-Cum-Kathgodam ","state_name":"Uttaranchal","lat":29.2182644,"lon":79.5129767,"effective_literacy_rate_total":81.75,"rank":124.0},{"city":"Halisahar ","state_name":"West Bengal","lat":22.9441261,"lon":88.4193259,"effective_literacy_rate_total":89.25,"rank":365.5},{"city":"Hanumangarh ","state_name":"Rajasthan","lat":29.5815012,"lon":74.3294199,"effective_literacy_rate_total":78.32,"rank":63.0},{"city":"Haora ","state_name":"West Bengal","lat":22.5957689,"lon":88.2636394,"effective_literacy_rate_total":89.86,"rank":382.5},{"city":"Hapur ","state_name":"Uttar Pradesh","lat":28.7305798,"lon":77.7758825,"effective_literacy_rate_total":75.34,"rank":36.0},{"city":"Hardoi ","state_name":"Uttar Pradesh","lat":27.2978965,"lon":80.1875065,"effective_literacy_rate_total":87.15,"rank":290.0},{"city":"Hardwar ","state_name":"Uttaranchal","lat":29.9456906,"lon":78.1642478,"effective_literacy_rate_total":84.99,"rank":211.0},{"city":"Hassan ","state_name":"Karnataka","lat":13.0068142,"lon":76.0995519,"effective_literacy_rate_total":90.51,"rank":406.0},{"city":"Hastsal ","state_name":"Delhi","lat":28.6377129,"lon":77.0490264,"effective_literacy_rate_total":84.68,"rank":199.0},{"city":"Hathras ","state_name":"Uttar Pradesh","lat":27.6056212,"lon":78.0537813,"effective_literacy_rate_total":79.06,"rank":71.0},{"city":"Hazaribag ","state_name":"Jharkhand","lat":23.9966213,"lon":85.3691068,"effective_literacy_rate_total":89.95,"rank":384.0},{"city":"Hindaun ","state_name":"Rajasthan","lat":26.7454967,"lon":77.0330481,"effective_literacy_rate_total":76.58,"rank":43.0},{"city":"Hindupur ","state_name":"Andhra Pradesh","lat":13.8185378,"lon":77.4988753,"effective_literacy_rate_total":76.4,"rank":40.0},{"city":"Hinganghat ","state_name":"Maharashtra","lat":20.5505728,"lon":78.8411405,"effective_literacy_rate_total":94.34,"rank":482.0},{"city":"Hisar ","state_name":"Haryana","lat":29.1491875,"lon":75.7216527,"effective_literacy_rate_total":81.04,"rank":104.0},{"city":"Hoshangabad ","state_name":"Madhya Pradesh","lat":22.744108,"lon":77.736967,"effective_literacy_rate_total":87.97,"rank":321.5},{"city":"Hoshiarpur ","state_name":"Punjab","lat":31.5143178,"lon":75.911483,"effective_literacy_rate_total":89.11,"rank":362.0},{"city":"Hospet ","state_name":"Karnataka","lat":15.2688542,"lon":76.3909241,"effective_literacy_rate_total":80.02,"rank":87.0},{"city":"Hosur ","state_name":"Tamil Nadu","lat":12.7409127,"lon":77.8252923,"effective_literacy_rate_total":88.24,"rank":331.0},{"city":"Hubli-Dharwad ","state_name":"Karnataka","lat":15.3647083,"lon":75.1239547,"effective_literacy_rate_total":87.28,"rank":294.0},{"city":"Hugli-Chinsurah ","state_name":"West Bengal","lat":22.8858771,"lon":88.3919026,"effective_literacy_rate_total":91.94,"rank":446.0},{"city":"Ichalkaranji ","state_name":"Maharashtra","lat":16.7090008,"lon":74.4560807,"effective_literacy_rate_total":87.85,"rank":315.0},{"city":"Imphal ","state_name":"Manipur","lat":24.8170111,"lon":93.9368439,"effective_literacy_rate_total":91.7,"rank":440.5},{"city":"Indore ","state_name":"Madhya Pradesh","lat":22.7195687,"lon":75.8577258,"effective_literacy_rate_total":87.38,"rank":295.5},{"city":"Jabalpur ","state_name":"Madhya Pradesh","lat":23.181467,"lon":79.9864071,"effective_literacy_rate_total":88.9,"rank":355.0},{"city":"Jagadhri ","state_name":"Haryana","lat":30.1680858,"lon":77.2969204,"effective_literacy_rate_total":85.79,"rank":240.0},{"city":"Jagdalpur ","state_name":"Chhattisgarh","lat":19.0740973,"lon":82.008014,"effective_literacy_rate_total":85.44,"rank":224.0},{"city":"Jaipur ","state_name":"Rajasthan","lat":26.9124336,"lon":75.7872709,"effective_literacy_rate_total":84.34,"rank":189.5},{"city":"Jalandhar ","state_name":"Punjab","lat":31.3260152,"lon":75.5761829,"effective_literacy_rate_total":85.5,"rank":228.0},{"city":"Jalgaon ","state_name":"Maharashtra","lat":21.0076578,"lon":75.5626039,"effective_literacy_rate_total":88.96,"rank":356.0},{"city":"Jalna ","state_name":"Maharashtra","lat":19.8296893,"lon":75.8800305,"effective_literacy_rate_total":84.61,"rank":197.0},{"city":"Jalpaiguri ","state_name":"West Bengal","lat":26.5434772,"lon":88.7205256,"effective_literacy_rate_total":91.11,"rank":425.0},{"city":"Jamalpur ","state_name":"Bihar","lat":25.312717,"lon":86.4906091,"effective_literacy_rate_total":87.38,"rank":295.5},{"city":"Jammu ","state_name":"Jammu and Kashmir","lat":32.7266016,"lon":74.8570259,"effective_literacy_rate_total":89.66,"rank":377.0},{"city":"Jamnagar ","state_name":"Gujarat","lat":22.4707019,"lon":70.05773,"effective_literacy_rate_total":82.58,"rank":139.0},{"city":"Jamshedpur ","state_name":"Jharkhand","lat":22.8045665,"lon":86.2028754,"effective_literacy_rate_total":87.5,"rank":300.5},{"city":"Jamuria ","state_name":"West Bengal","lat":23.7060688,"lon":87.0774107,"effective_literacy_rate_total":73.11,"rank":22.0},{"city":"Jaunpur ","state_name":"Uttar Pradesh","lat":25.7490034,"lon":82.6987002,"effective_literacy_rate_total":82.11,"rank":132.0},{"city":"Jehanabad ","state_name":"Bihar","lat":25.1515827,"lon":84.981754,"effective_literacy_rate_total":79.66,"rank":80.0},{"city":"Jetpur Navagadh ","state_name":"Gujarat","lat":21.7615246,"lon":70.6276279,"effective_literacy_rate_total":83.86,"rank":177.0},{"city":"Jhansi ","state_name":"Uttar Pradesh","lat":25.4484257,"lon":78.5684594,"effective_literacy_rate_total":83.81,"rank":175.0},{"city":"Jhunjhunun ","state_name":"Rajasthan","lat":28.1288747,"lon":75.3995089,"effective_literacy_rate_total":74.4,"rank":27.0},{"city":"Jind ","state_name":"Haryana","lat":29.3211153,"lon":76.3058328,"effective_literacy_rate_total":83.63,"rank":171.0},{"city":"Jodhpur ","state_name":"Rajasthan","lat":26.2389469,"lon":73.0243094,"effective_literacy_rate_total":81.56,"rank":116.0},{"city":"Junagadh ","state_name":"Gujarat","lat":21.522184,"lon":70.4578768,"effective_literacy_rate_total":88.63,"rank":343.0},{"city":"Kadapa ","state_name":"Andhra Pradesh","lat":14.4673541,"lon":78.8241339,"effective_literacy_rate_total":79.38,"rank":76.0},{"city":"Kaithal ","state_name":"Haryana","lat":29.7856734,"lon":76.3984537,"effective_literacy_rate_total":80.76,"rank":97.0},{"city":"Kakinada ","state_name":"Andhra Pradesh","lat":16.9890648,"lon":82.2474648,"effective_literacy_rate_total":81.23,"rank":111.0},{"city":"Kalol ","state_name":"Gujarat","lat":23.2463895,"lon":72.5086513,"effective_literacy_rate_total":88.69,"rank":345.0},{"city":"Kalyani ","state_name":"West Bengal","lat":22.9750855,"lon":88.4345078,"effective_literacy_rate_total":88.75,"rank":347.0},{"city":"Kamarhati ","state_name":"West Bengal","lat":22.6846668,"lon":88.3706491,"effective_literacy_rate_total":88.22,"rank":329.0},{"city":"Kancheepuram ","state_name":"Tamil Nadu","lat":12.8341735,"lon":79.7036402,"effective_literacy_rate_total":88.35,"rank":335.0},{"city":"Kanchrapara ","state_name":"West Bengal","lat":22.944101,"lon":88.4335019,"effective_literacy_rate_total":90.8,"rank":412.0},{"city":"Kanpur ","state_name":"Uttar Pradesh","lat":26.449923,"lon":80.3318736,"effective_literacy_rate_total":84.14,"rank":182.0},{"city":"Kanpur City","state_name":"Uttar Pradesh","lat":26.449923,"lon":80.3318736,"effective_literacy_rate_total":79.65,"rank":79.0},{"city":"Karaikkudi ","state_name":"Tamil Nadu","lat":10.0731315,"lon":78.7801544,"effective_literacy_rate_total":91.25,"rank":431.0},{"city":"Karawal Nagar ","state_name":"Delhi","lat":28.7283102,"lon":77.276926,"effective_literacy_rate_total":84.57,"rank":194.5},{"city":"Karimnagar ","state_name":"Andhra Pradesh","lat":18.4385553,"lon":79.1288412,"effective_literacy_rate_total":86.75,"rank":273.0},{"city":"Karnal ","state_name":"Haryana","lat":29.6856929,"lon":76.9904825,"effective_literacy_rate_total":86.32,"rank":253.0},{"city":"Kasganj ","state_name":"Uttar Pradesh","lat":27.8129344,"lon":78.649785,"effective_literacy_rate_total":78.56,"rank":66.0},{"city":"Kashipur ","state_name":"Uttaranchal","lat":29.2104232,"lon":78.9618845,"effective_literacy_rate_total":83.4,"rank":163.5},{"city":"Katihar ","state_name":"Bihar","lat":25.552048,"lon":87.5718609,"effective_literacy_rate_total":79.87,"rank":86.0},{"city":"Khammam ","state_name":"Andhra Pradesh","lat":17.2472528,"lon":80.1514447,"effective_literacy_rate_total":81.7,"rank":121.5},{"city":"Khandwa ","state_name":"Madhya Pradesh","lat":21.8257334,"lon":76.352571,"effective_literacy_rate_total":86.98,"rank":284.5},{"city":"Khanna ","state_name":"Punjab","lat":30.697852,"lon":76.2112286,"effective_literacy_rate_total":84.43,"rank":193.0},{"city":"Kharagpur ","state_name":"West Bengal","lat":22.34601,"lon":87.2319753,"effective_literacy_rate_total":86.64,"rank":270.0},{"city":"Khardaha ","state_name":"West Bengal","lat":22.7002943,"lon":88.3753455,"effective_literacy_rate_total":95.5,"rank":488.0},{"city":"Khargone ","state_name":"Madhya Pradesh","lat":21.90287,"lon":75.8069082,"effective_literacy_rate_total":82.96,"rank":148.5},{"city":"Khora ","state_name":"Uttar Pradesh","lat":28.753915,"lon":77.3999054,"effective_literacy_rate_total":86.0,"rank":249.0},{"city":"Khurja ","state_name":"Uttar Pradesh","lat":28.2513538,"lon":77.8538797,"effective_literacy_rate_total":67.63,"rank":6.0},{"city":"Kirari Suleman Nagar ","state_name":"Delhi","lat":28.6967948,"lon":77.0643614,"effective_literacy_rate_total":79.22,"rank":72.0},{"city":"Kishanganj ","state_name":"Bihar","lat":26.0917422,"lon":87.9383822,"effective_literacy_rate_total":74.71,"rank":30.0},{"city":"Kishangarh ","state_name":"Rajasthan","lat":26.5870344,"lon":74.856397,"effective_literacy_rate_total":80.15,"rank":89.0},{"city":"Kochi ","state_name":"Kerala","lat":9.9312328,"lon":76.2673041,"effective_literacy_rate_total":97.49,"rank":492.0},{"city":"Kolar ","state_name":"Karnataka","lat":13.1357446,"lon":78.1325611,"effective_literacy_rate_total":84.02,"rank":180.0},{"city":"Kolhapur ","state_name":"Maharashtra","lat":16.7049873,"lon":74.2432527,"effective_literacy_rate_total":92.12,"rank":450.0},{"city":"Kolkata ","state_name":"West Bengal","lat":22.572646,"lon":88.363895,"effective_literacy_rate_total":87.14,"rank":289.0},{"city":"Kollam ","state_name":"Kerala","lat":8.8932118,"lon":76.6141396,"effective_literacy_rate_total":92.1,"rank":449.0},{"city":"Korba ","state_name":"Chhattisgarh","lat":22.3594501,"lon":82.7500595,"effective_literacy_rate_total":84.28,"rank":186.5},{"city":"Kota ","state_name":"Rajasthan","lat":25.2138156,"lon":75.8647527,"effective_literacy_rate_total":83.65,"rank":172.0},{"city":"Kozhikode ","state_name":"Kerala","lat":11.2587531,"lon":75.78041,"effective_literacy_rate_total":96.8,"rank":490.0},{"city":"Krishnanagar ","state_name":"West Bengal","lat":23.4008744,"lon":88.5013962,"effective_literacy_rate_total":90.92,"rank":417.0},{"city":"Kulti ","state_name":"West Bengal","lat":23.7370306,"lon":86.8370937,"effective_literacy_rate_total":76.58,"rank":43.0},{"city":"Kumbakonam ","state_name":"Tamil Nadu","lat":10.9616945,"lon":79.3881132,"effective_literacy_rate_total":91.7,"rank":440.5},{"city":"Kurichi ","state_name":"Tamil Nadu","lat":11.5707716,"lon":77.6966143,"effective_literacy_rate_total":90.42,"rank":402.5},{"city":"Kurnool ","state_name":"Andhra Pradesh","lat":15.8281257,"lon":78.0372792,"effective_literacy_rate_total":78.15,"rank":60.0},{"city":"Lakhimpur ","state_name":"Uttar Pradesh","lat":27.9490794,"lon":80.7824012,"effective_literacy_rate_total":84.39,"rank":191.5},{"city":"Lalitpur ","state_name":"Uttar Pradesh","lat":24.6878597,"lon":78.4120206,"effective_literacy_rate_total":83.96,"rank":179.0},{"city":"Latur ","state_name":"Maharashtra","lat":18.4087934,"lon":76.5603828,"effective_literacy_rate_total":86.43,"rank":258.0},{"city":"Loni ","state_name":"Uttar Pradesh","lat":28.7316438,"lon":77.3008506,"effective_literacy_rate_total":75.24,"rank":35.0},{"city":"Lucknow ","state_name":"Uttar Pradesh","lat":26.8466937,"lon":80.946166,"effective_literacy_rate_total":84.72,"rank":202.0},{"city":"Ludhiana ","state_name":"Punjab","lat":30.900965,"lon":75.8572758,"effective_literacy_rate_total":85.38,"rank":223.0},{"city":"Machilipatnam ","state_name":"Andhra Pradesh","lat":16.1905457,"lon":81.1361543,"effective_literacy_rate_total":83.32,"rank":159.0},{"city":"Madanapalle ","state_name":"Andhra Pradesh","lat":13.5603491,"lon":78.5036065,"effective_literacy_rate_total":81.4,"rank":113.0},{"city":"Madavaram ","state_name":"Tamil Nadu","lat":13.147819,"lon":80.2309861,"effective_literacy_rate_total":90.27,"rank":395.5},{"city":"Madhyamgram ","state_name":"West Bengal","lat":22.6925015,"lon":88.465448,"effective_literacy_rate_total":90.16,"rank":391.0},{"city":"Madurai ","state_name":"Tamil Nadu","lat":9.9252007,"lon":78.1197754,"effective_literacy_rate_total":91.42,"rank":435.0},{"city":"Mahbubnagar ","state_name":"Andhra Pradesh","lat":16.7375089,"lon":78.0081221,"effective_literacy_rate_total":84.77,"rank":203.0},{"city":"Mahesana ","state_name":"Gujarat","lat":23.5879607,"lon":72.3693252,"effective_literacy_rate_total":90.99,"rank":422.0},{"city":"Maheshtala ","state_name":"West Bengal","lat":22.511976,"lon":88.2509941,"effective_literacy_rate_total":82.63,"rank":141.5},{"city":"Mainpuri ","state_name":"Uttar Pradesh","lat":27.2177405,"lon":79.1096901,"effective_literacy_rate_total":85.95,"rank":245.0},{"city":"Malegaon ","state_name":"Maharashtra","lat":20.5547497,"lon":74.5100291,"effective_literacy_rate_total":86.66,"rank":271.0},{"city":"Malerkotla ","state_name":"Punjab","lat":30.5232076,"lon":75.8882508,"effective_literacy_rate_total":70.25,"rank":12.0},{"city":"Mandoli ","state_name":"Delhi","lat":28.7041396,"lon":77.313921,"effective_literacy_rate_total":80.72,"rank":96.0},{"city":"Mandsaur ","state_name":"Madhya Pradesh","lat":24.076836,"lon":75.0692952,"effective_literacy_rate_total":86.79,"rank":276.0},{"city":"Mandya ","state_name":"Karnataka","lat":12.5221567,"lon":76.9009191,"effective_literacy_rate_total":85.11,"rank":212.0},{"city":"Mangalore ","state_name":"Karnataka","lat":12.9141417,"lon":74.8559568,"effective_literacy_rate_total":94.03,"rank":478.0},{"city":"Mango ","state_name":"Jharkhand","lat":22.834024,"lon":86.219577,"effective_literacy_rate_total":86.62,"rank":268.5},{"city":"Mathura ","state_name":"Uttar Pradesh","lat":27.4924134,"lon":77.673673,"effective_literacy_rate_total":76.75,"rank":45.0},{"city":"Maunath Bhanjan ","state_name":"Uttar Pradesh","lat":25.9496379,"lon":83.5586445,"effective_literacy_rate_total":78.6,"rank":67.0},{"city":"Medinipur ","state_name":"West Bengal","lat":22.4308892,"lon":87.3214908,"effective_literacy_rate_total":90.01,"rank":388.0},{"city":"Meerut ","state_name":"Uttar Pradesh","lat":28.9844618,"lon":77.7064137,"effective_literacy_rate_total":77.7,"rank":55.0},{"city":"Mira Bhayander ","state_name":"Maharashtra","lat":19.2952325,"lon":72.8543897,"effective_literacy_rate_total":93.67,"rank":469.0},{"city":"Miryalaguda ","state_name":"Andhra Pradesh","lat":16.8753106,"lon":79.5659633,"effective_literacy_rate_total":82.09,"rank":130.5},{"city":"Mirzapur-Cum-Vindhyachal ","state_name":"Uttar Pradesh","lat":25.1336987,"lon":82.5644344,"effective_literacy_rate_total":78.25,"rank":61.0},{"city":"Modinagar ","state_name":"Uttar Pradesh","lat":28.8316307,"lon":77.5779592,"effective_literacy_rate_total":90.0,"rank":387.0},{"city":"Moga ","state_name":"Punjab","lat":30.8164603,"lon":75.1717093,"effective_literacy_rate_total":82.09,"rank":130.5},{"city":"Moradabad ","state_name":"Uttar Pradesh","lat":28.8386481,"lon":78.7733286,"effective_literacy_rate_total":70.65,"rank":14.0},{"city":"Morena ","state_name":"Madhya Pradesh","lat":26.4933562,"lon":77.9909949,"effective_literacy_rate_total":80.38,"rank":91.0},{"city":"Morvi ","state_name":"Gujarat","lat":22.8119895,"lon":70.8236195,"effective_literacy_rate_total":84.59,"rank":196.0},{"city":"Motihari ","state_name":"Bihar","lat":26.6469624,"lon":84.9088938,"effective_literacy_rate_total":87.2,"rank":291.0},{"city":"Mughalsarai ","state_name":"Uttar Pradesh","lat":25.2814947,"lon":83.1198203,"effective_literacy_rate_total":82.83,"rank":145.0},{"city":"Muktsar ","state_name":"Punjab","lat":30.4766391,"lon":74.511172,"effective_literacy_rate_total":77.31,"rank":50.0},{"city":"Munger ","state_name":"Bihar","lat":25.3747561,"lon":86.4735251,"effective_literacy_rate_total":81.83,"rank":125.0},{"city":"Murwara ","state_name":"Madhya Pradesh","lat":23.7473807,"lon":80.365865,"effective_literacy_rate_total":87.42,"rank":298.0},{"city":"Mustafabad ","state_name":"Delhi","lat":28.7113968,"lon":77.2681086,"effective_literacy_rate_total":76.1,"rank":39.0},{"city":"Muzaffarnagar ","state_name":"Uttar Pradesh","lat":29.4726817,"lon":77.7085091,"effective_literacy_rate_total":80.99,"rank":102.0},{"city":"Muzaffarpur ","state_name":"Bihar","lat":26.1208876,"lon":85.3647201,"effective_literacy_rate_total":85.16,"rank":215.5},{"city":"Mysore ","state_name":"Karnataka","lat":12.2958104,"lon":76.6393805,"effective_literacy_rate_total":86.84,"rank":279.0},{"city":"Nabadwip ","state_name":"West Bengal","lat":23.4036446,"lon":88.3676393,"effective_literacy_rate_total":87.75,"rank":312.5},{"city":"Nadiad ","state_name":"Gujarat","lat":22.6915853,"lon":72.8633635,"effective_literacy_rate_total":88.28,"rank":334.0},{"city":"Nagaon ","state_name":"Assam","lat":26.3463713,"lon":92.6840426,"effective_literacy_rate_total":93.43,"rank":467.0},{"city":"Nagapattinam ","state_name":"Tamil Nadu","lat":10.7656082,"lon":79.8423888,"effective_literacy_rate_total":89.49,"rank":373.0},{"city":"Nagaur ","state_name":"Rajasthan","lat":27.1991222,"lon":73.740924,"effective_literacy_rate_total":73.05,"rank":21.0},{"city":"Nagda ","state_name":"Madhya Pradesh","lat":23.4454599,"lon":75.4169918,"effective_literacy_rate_total":81.61,"rank":117.0},{"city":"Nagercoil ","state_name":"Tamil Nadu","lat":8.1832857,"lon":77.4118996,"effective_literacy_rate_total":95.35,"rank":487.0},{"city":"Nagpur ","state_name":"Maharashtra","lat":21.1458004,"lon":79.0881546,"effective_literacy_rate_total":93.13,"rank":463.0},{"city":"Naihati ","state_name":"West Bengal","lat":22.8928724,"lon":88.4220324,"effective_literacy_rate_total":89.79,"rank":380.5},{"city":"Nalgonda ","state_name":"Andhra Pradesh","lat":17.0575707,"lon":79.2620294,"effective_literacy_rate_total":87.08,"rank":287.0},{"city":"Nanded Waghala ","state_name":"Maharashtra","lat":19.1428869,"lon":77.303723,"effective_literacy_rate_total":87.4,"rank":297.0},{"city":"Nandurbar ","state_name":"Maharashtra","lat":21.7468548,"lon":74.123996,"effective_literacy_rate_total":86.99,"rank":286.0},{"city":"Nandyal ","state_name":"Andhra Pradesh","lat":15.4785694,"lon":78.4830934,"effective_literacy_rate_total":76.89,"rank":46.0},{"city":"Nangloi Jat ","state_name":"Delhi","lat":28.6841206,"lon":77.0632942,"effective_literacy_rate_total":83.4,"rank":163.5},{"city":"Narasaraopet ","state_name":"Andhra Pradesh","lat":16.2353506,"lon":80.0479039,"effective_literacy_rate_total":79.45,"rank":77.0},{"city":"Nashik ","state_name":"Maharashtra","lat":19.9974533,"lon":73.7898023,"effective_literacy_rate_total":90.96,"rank":419.0},{"city":"Navi Mumbai ","state_name":"Maharashtra","lat":19.0330488,"lon":73.0296625,"effective_literacy_rate_total":91.57,"rank":438.0},{"city":"Navi Mumbai Panvel Raigarh ","state_name":"Maharashtra","lat":18.9894007,"lon":73.1175162,"effective_literacy_rate_total":90.72,"rank":411.0},{"city":"Navsari ","state_name":"Gujarat","lat":20.9467019,"lon":72.9520348,"effective_literacy_rate_total":89.25,"rank":365.5},{"city":"Neemuch ","state_name":"Madhya Pradesh","lat":24.4763852,"lon":74.8624092,"effective_literacy_rate_total":85.86,"rank":242.5},{"city":"Nellore ","state_name":"Andhra Pradesh","lat":14.4425987,"lon":79.986456,"effective_literacy_rate_total":83.59,"rank":170.0},{"city":"New Delhi ","state_name":"Delhi","lat":28.6139,"lon":77.209,"effective_literacy_rate_total":90.93,"rank":418.0},{"city":"Neyveli ","state_name":"Tamil Nadu","lat":11.5432364,"lon":79.4760133,"effective_literacy_rate_total":90.98,"rank":420.5},{"city":"Nizamabad ","state_name":"Andhra Pradesh","lat":18.6725047,"lon":78.0940867,"effective_literacy_rate_total":80.31,"rank":90.0},{"city":"Noida ","state_name":"Uttar Pradesh","lat":28.5355161,"lon":77.3910265,"effective_literacy_rate_total":88.58,"rank":340.0},{"city":"North Barrackpur ","state_name":"West Bengal","lat":22.7902358,"lon":88.367179,"effective_literacy_rate_total":94.78,"rank":485.0},{"city":"North Dum Dum ","state_name":"West Bengal","lat":22.6658076,"lon":88.4258483,"effective_literacy_rate_total":91.98,"rank":447.0},{"city":"Ongole ","state_name":"Andhra Pradesh","lat":15.5057232,"lon":80.049922,"effective_literacy_rate_total":83.57,"rank":169.0},{"city":"Orai ","state_name":"Uttar Pradesh","lat":26.00864,"lon":79.4478858,"effective_literacy_rate_total":83.31,"rank":158.0},{"city":"Osmanabad ","state_name":"Maharashtra","lat":18.2069636,"lon":76.1783739,"effective_literacy_rate_total":88.15,"rank":326.0},{"city":"Ozhukarai ","state_name":"Puducherry","lat":11.9475611,"lon":79.7793932,"effective_literacy_rate_total":90.2,"rank":392.0},{"city":"Palakkad ","state_name":"Kerala","lat":10.7867303,"lon":76.6547932,"effective_literacy_rate_total":94.2,"rank":481.0},{"city":"Palanpur ","state_name":"Gujarat","lat":24.174051,"lon":72.4330989,"effective_literacy_rate_total":86.44,"rank":260.0},{"city":"Pali ","state_name":"Rajasthan","lat":25.7710893,"lon":73.3234478,"effective_literacy_rate_total":78.67,"rank":68.0},{"city":"Pallavaram ","state_name":"Tamil Nadu","lat":12.9673484,"lon":80.1526888,"effective_literacy_rate_total":93.26,"rank":466.0},{"city":"Palwal ","state_name":"Haryana","lat":28.1487362,"lon":77.3320262,"effective_literacy_rate_total":81.0,"rank":103.0},{"city":"Panchkula ","state_name":"Haryana","lat":30.6942091,"lon":76.860565,"effective_literacy_rate_total":87.86,"rank":316.0},{"city":"Panihati ","state_name":"West Bengal","lat":22.6983108,"lon":88.3991789,"effective_literacy_rate_total":92.78,"rank":459.0},{"city":"Panipat ","state_name":"Haryana","lat":29.3909464,"lon":76.9635023,"effective_literacy_rate_total":84.29,"rank":188.0},{"city":"Panvel ","state_name":"Maharashtra","lat":18.9894007,"lon":73.1175162,"effective_literacy_rate_total":93.98,"rank":477.0},{"city":"Parbhani ","state_name":"Maharashtra","lat":19.2609958,"lon":76.776665,"effective_literacy_rate_total":84.34,"rank":189.5},{"city":"Patan ","state_name":"Gujarat","lat":23.8493246,"lon":72.1266255,"effective_literacy_rate_total":87.56,"rank":305.5},{"city":"Pathankot ","state_name":"Punjab","lat":32.2643375,"lon":75.6421121,"effective_literacy_rate_total":88.6,"rank":341.0},{"city":"Patiala ","state_name":"Punjab","lat":30.3397809,"lon":76.3868797,"effective_literacy_rate_total":86.36,"rank":255.0},{"city":"Patna ","state_name":"Bihar","lat":25.5940947,"lon":85.1375645,"effective_literacy_rate_total":84.71,"rank":201.0},{"city":"Pilibhit ","state_name":"Uttar Pradesh","lat":28.6207939,"lon":79.8128649,"effective_literacy_rate_total":74.26,"rank":26.0},{"city":"Pimpri Chinchwad ","state_name":"Maharashtra","lat":18.6297811,"lon":73.7997094,"effective_literacy_rate_total":90.9,"rank":415.0},{"city":"Pithampur ","state_name":"Madhya Pradesh","lat":22.613252,"lon":75.6822899,"effective_literacy_rate_total":82.73,"rank":144.0},{"city":"Porbandar ","state_name":"Gujarat","lat":21.6417069,"lon":69.6292654,"effective_literacy_rate_total":86.46,"rank":261.0},{"city":"Port Blair ","state_name":"Andaman and Nicobar","lat":11.6233774,"lon":92.7264828,"effective_literacy_rate_total":89.76,"rank":378.0},{"city":"Proddatur ","state_name":"Andhra Pradesh","lat":14.7491864,"lon":78.5531577,"effective_literacy_rate_total":78.08,"rank":59.0},{"city":"Puducherry ","state_name":"Puducherry","lat":11.9138598,"lon":79.8144722,"effective_literacy_rate_total":89.29,"rank":367.0},{"city":"Pudukkottai ","state_name":"Tamil Nadu","lat":10.379663,"lon":78.8208454,"effective_literacy_rate_total":92.19,"rank":451.0},{"city":"Pune ","state_name":"Maharashtra","lat":18.5204303,"lon":73.8567437,"effective_literacy_rate_total":91.61,"rank":439.0},{"city":"Puri ","state_name":"Orissa","lat":19.8133822,"lon":85.8314655,"effective_literacy_rate_total":89.38,"rank":371.0},{"city":"Purnia ","state_name":"Bihar","lat":25.7771391,"lon":87.4752551,"effective_literacy_rate_total":74.48,"rank":28.0},{"city":"Puruliya ","state_name":"West Bengal","lat":23.3320779,"lon":86.365208,"effective_literacy_rate_total":82.34,"rank":136.0},{"city":"Rae Bareli ","state_name":"Uttar Pradesh","lat":26.2345298,"lon":81.2408689,"effective_literacy_rate_total":82.97,"rank":150.0},{"city":"Raichur ","state_name":"Karnataka","lat":16.2120031,"lon":77.3439283,"effective_literacy_rate_total":77.47,"rank":52.0},{"city":"Raiganj ","state_name":"West Bengal","lat":25.6185295,"lon":88.1255837,"effective_literacy_rate_total":81.66,"rank":119.0},{"city":"Raigarh ","state_name":"Chhattisgarh","lat":21.8974003,"lon":83.3949632,"effective_literacy_rate_total":87.55,"rank":303.5},{"city":"Raipur ","state_name":"Chhattisgarh","lat":21.2513844,"lon":81.6296413,"effective_literacy_rate_total":86.9,"rank":283.0},{"city":"Rajahmundry ","state_name":"Andhra Pradesh","lat":17.0005383,"lon":81.8040345,"effective_literacy_rate_total":84.28,"rank":186.5},{"city":"Rajapalayam ","state_name":"Tamil Nadu","lat":9.4653377,"lon":77.5275463,"effective_literacy_rate_total":86.25,"rank":251.0},{"city":"Rajarhat Gopalpur ","state_name":"West Bengal","lat":22.6321975,"lon":88.4540911,"effective_literacy_rate_total":90.91,"rank":416.0},{"city":"Rajkot ","state_name":"Gujarat","lat":22.3038945,"lon":70.8021599,"effective_literacy_rate_total":88.82,"rank":353.0},{"city":"Rajnandgaon ","state_name":"Chhattisgarh","lat":21.0971034,"lon":81.0302222,"effective_literacy_rate_total":87.95,"rank":319.5},{"city":"Rajpur Sonarpur ","state_name":"West Bengal","lat":22.4490894,"lon":88.3914731,"effective_literacy_rate_total":91.06,"rank":423.0},{"city":"Ramagundam ","state_name":"Andhra Pradesh","lat":18.7595503,"lon":79.4816378,"effective_literacy_rate_total":75.54,"rank":37.0},{"city":"Rampur ","state_name":"Uttar Pradesh","lat":25.4842209,"lon":82.5916032,"effective_literacy_rate_total":60.74,"rank":3.0},{"city":"Ranchi ","state_name":"Jharkhand","lat":23.3440997,"lon":85.309562,"effective_literacy_rate_total":88.49,"rank":337.0},{"city":"Ranibennur ","state_name":"Karnataka","lat":14.6113428,"lon":75.6382657,"effective_literacy_rate_total":89.98,"rank":385.0},{"city":"Raniganj ","state_name":"West Bengal","lat":23.6290575,"lon":87.0923906,"effective_literacy_rate_total":78.47,"rank":65.0},{"city":"Ratlam ","state_name":"Madhya Pradesh","lat":23.3341696,"lon":75.0376325,"effective_literacy_rate_total":87.88,"rank":317.0},{"city":"Raurkela Industrial Township ","state_name":"Orissa","lat":22.1993143,"lon":84.8620054,"effective_literacy_rate_total":86.6,"rank":266.5},{"city":"Raurkela Town ","state_name":"Orissa","lat":22.260423,"lon":84.8535844,"effective_literacy_rate_total":87.95,"rank":319.5},{"city":"Rewa ","state_name":"Madhya Pradesh","lat":24.5372927,"lon":81.30418,"effective_literacy_rate_total":87.74,"rank":311.0},{"city":"Rewari ","state_name":"Haryana","lat":28.1927631,"lon":76.6239423,"effective_literacy_rate_total":88.25,"rank":332.5},{"city":"Rishra ","state_name":"West Bengal","lat":22.7244023,"lon":88.3287896,"effective_literacy_rate_total":88.89,"rank":354.0},{"city":"Robertson Pet ","state_name":"Karnataka","lat":12.9551189,"lon":78.2698622,"effective_literacy_rate_total":89.6,"rank":375.0},{"city":"Rohtak ","state_name":"Haryana","lat":28.8955152,"lon":76.606611,"effective_literacy_rate_total":84.08,"rank":181.0},{"city":"Roorkee ","state_name":"Uttaranchal","lat":29.8542626,"lon":77.8880002,"effective_literacy_rate_total":90.7,"rank":410.0},{"city":"Rudrapur ","state_name":"Uttaranchal","lat":28.9875082,"lon":79.4141214,"effective_literacy_rate_total":73.21,"rank":23.0},{"city":"S.A.S. Nagar ","state_name":"Punjab","lat":30.6496486,"lon":76.7567368,"effective_literacy_rate_total":93.22,"rank":465.0},{"city":"Sagar ","state_name":"Madhya Pradesh","lat":23.838805,"lon":78.7378068,"effective_literacy_rate_total":90.23,"rank":393.0},{"city":"Saharanpur ","state_name":"Uttar Pradesh","lat":29.967079,"lon":77.5510172,"effective_literacy_rate_total":77.94,"rank":56.0},{"city":"Saharsa ","state_name":"Bihar","lat":25.8834961,"lon":86.6006249,"effective_literacy_rate_total":77.66,"rank":53.0},{"city":"Salem ","state_name":"Tamil Nadu","lat":11.664325,"lon":78.1460142,"effective_literacy_rate_total":84.8,"rank":204.0},{"city":"Sambalpur ","state_name":"Orissa","lat":21.4668716,"lon":83.9811665,"effective_literacy_rate_total":85.74,"rank":236.5},{"city":"Sambhal ","state_name":"Uttar Pradesh","lat":28.5903614,"lon":78.5717631,"effective_literacy_rate_total":49.51,"rank":1.0},{"city":"Sangli Miraj Kupwad ","state_name":"Maharashtra","lat":16.8541887,"lon":74.6049061,"effective_literacy_rate_total":88.08,"rank":325.0},{"city":"Santipur ","state_name":"West Bengal","lat":23.2645399,"lon":88.4380966,"effective_literacy_rate_total":81.43,"rank":114.0},{"city":"Sasaram ","state_name":"Bihar","lat":24.949036,"lon":84.0314295,"effective_literacy_rate_total":82.31,"rank":135.0},{"city":"Satara ","state_name":"Maharashtra","lat":17.6804639,"lon":74.018261,"effective_literacy_rate_total":92.91,"rank":461.0},{"city":"Satna ","state_name":"Madhya Pradesh","lat":24.6005075,"lon":80.8322428,"effective_literacy_rate_total":86.33,"rank":254.0},{"city":"Sawai Madhopur ","state_name":"Rajasthan","lat":26.0377772,"lon":76.3521514,"effective_literacy_rate_total":80.85,"rank":99.0},{"city":"Secunderabad ","state_name":"Andhra Pradesh","lat":17.4399295,"lon":78.4982741,"effective_literacy_rate_total":87.75,"rank":312.5},{"city":"Sehore ","state_name":"Madhya Pradesh","lat":23.205012,"lon":77.0850781,"effective_literacy_rate_total":85.52,"rank":229.0},{"city":"Seoni ","state_name":"Madhya Pradesh","lat":22.0868691,"lon":79.5434841,"effective_literacy_rate_total":91.16,"rank":428.5},{"city":"Serampore ","state_name":"West Bengal","lat":22.748331,"lon":88.3385053,"effective_literacy_rate_total":89.99,"rank":386.0},{"city":"Shahjahanpur ","state_name":"Uttar Pradesh","lat":27.8295801,"lon":79.8296743,"effective_literacy_rate_total":68.92,"rank":8.0},{"city":"Shamli ","state_name":"Uttar Pradesh","lat":29.4507575,"lon":77.3152116,"effective_literacy_rate_total":81.97,"rank":129.0},{"city":"Shikohabad ","state_name":"Uttar Pradesh","lat":27.1061756,"lon":78.5881674,"effective_literacy_rate_total":81.68,"rank":120.0},{"city":"Shillong ","state_name":"Meghalaya","lat":25.5714,"lon":91.8848,"effective_literacy_rate_total":92.34,"rank":452.0},{"city":"Shimla ","state_name":"Himachal Pradesh","lat":31.1048145,"lon":77.1734033,"effective_literacy_rate_total":94.67,"rank":484.0},{"city":"Shimoga ","state_name":"Karnataka","lat":13.9299299,"lon":75.568101,"effective_literacy_rate_total":88.02,"rank":323.0},{"city":"Shivpuri ","state_name":"Madhya Pradesh","lat":25.4357869,"lon":77.665066,"effective_literacy_rate_total":79.24,"rank":73.0},{"city":"Sikar ","state_name":"Rajasthan","lat":27.6094,"lon":75.139911,"effective_literacy_rate_total":77.13,"rank":49.0},{"city":"Silchar ","state_name":"Assam","lat":24.8332708,"lon":92.7789054,"effective_literacy_rate_total":91.74,"rank":442.5},{"city":"Siliguri ","state_name":"West Bengal","lat":26.7271012,"lon":88.3952861,"effective_literacy_rate_total":85.46,"rank":225.5},{"city":"Singrauli ","state_name":"Madhya Pradesh","lat":24.1992101,"lon":82.6645469,"effective_literacy_rate_total":77.35,"rank":51.0},{"city":"Sirsa ","state_name":"Haryana","lat":29.5335931,"lon":75.0177029,"effective_literacy_rate_total":83.03,"rank":151.0},{"city":"Sitapur ","state_name":"Uttar Pradesh","lat":27.5325072,"lon":80.8986502,"effective_literacy_rate_total":83.11,"rank":153.0},{"city":"Siwan ","state_name":"Bihar","lat":26.2196205,"lon":84.3566593,"effective_literacy_rate_total":84.65,"rank":198.0},{"city":"Solapur ","state_name":"Maharashtra","lat":17.6599188,"lon":75.9063906,"effective_literacy_rate_total":83.88,"rank":178.0},{"city":"Sonipat ","state_name":"Haryana","lat":28.9287735,"lon":77.091281,"effective_literacy_rate_total":87.56,"rank":305.5},{"city":"South Dum Dum ","state_name":"West Bengal","lat":22.6059435,"lon":88.3967536,"effective_literacy_rate_total":92.82,"rank":460.0},{"city":"Srikakulam ","state_name":"Andhra Pradesh","lat":18.4285005,"lon":84.0167423,"effective_literacy_rate_total":85.13,"rank":214.0},{"city":"Srinagar ","state_name":"Jammu and Kashmir","lat":34.0836708,"lon":74.7972825,"effective_literacy_rate_total":70.98,"rank":15.0},{"city":"Sujangarh ","state_name":"Rajasthan","lat":27.7044756,"lon":74.4642861,"effective_literacy_rate_total":74.55,"rank":29.0},{"city":"Sultan Pur Majra ","state_name":"Delhi","lat":28.6958531,"lon":77.0805496,"effective_literacy_rate_total":79.78,"rank":82.5},{"city":"Sultanpur ","state_name":"Uttar Pradesh","lat":26.2647757,"lon":82.0727061,"effective_literacy_rate_total":88.63,"rank":343.0},{"city":"Surat ","state_name":"Gujarat","lat":21.1702401,"lon":72.8310607,"effective_literacy_rate_total":89.03,"rank":357.0},{"city":"Surendranagar Dudhrej ","state_name":"Gujarat","lat":22.7201319,"lon":71.649536,"effective_literacy_rate_total":85.34,"rank":222.0},{"city":"Suryapet ","state_name":"Andhra Pradesh","lat":17.1353148,"lon":79.6333674,"effective_literacy_rate_total":84.88,"rank":206.5},{"city":"Tadepalligudem ","state_name":"Andhra Pradesh","lat":16.8138415,"lon":81.521241,"effective_literacy_rate_total":83.1,"rank":152.0},{"city":"Tadpatri ","state_name":"Andhra Pradesh","lat":14.9070274,"lon":78.0092703,"effective_literacy_rate_total":72.17,"rank":18.0},{"city":"Tambaram ","state_name":"Tamil Nadu","lat":12.9229153,"lon":80.1274558,"effective_literacy_rate_total":93.72,"rank":473.5},{"city":"Tenali ","state_name":"Andhra Pradesh","lat":16.2395313,"lon":80.6493396,"effective_literacy_rate_total":82.63,"rank":141.5},{"city":"Thane ","state_name":"Maharashtra","lat":19.2183307,"lon":72.9780897,"effective_literacy_rate_total":91.36,"rank":434.0},{"city":"Thanesar ","state_name":"Haryana","lat":29.9696148,"lon":76.8197522,"effective_literacy_rate_total":85.73,"rank":234.0},{"city":"Thanjavur ","state_name":"Tamil Nadu","lat":10.7869994,"lon":79.1378274,"effective_literacy_rate_total":91.48,"rank":436.0},{"city":"Thiruvananthapuram ","state_name":"Kerala","lat":8.5241391,"lon":76.9366376,"effective_literacy_rate_total":93.72,"rank":473.5},{"city":"Thoothukkudi ","state_name":"Tamil Nadu","lat":8.7641661,"lon":78.1348361,"effective_literacy_rate_total":94.47,"rank":483.0},{"city":"Thrissur ","state_name":"Kerala","lat":10.5276416,"lon":76.2144349,"effective_literacy_rate_total":97.24,"rank":491.0},{"city":"Tiruchirappalli ","state_name":"Tamil Nadu","lat":10.7904833,"lon":78.7046725,"effective_literacy_rate_total":91.32,"rank":432.0},{"city":"Tirunelveli ","state_name":"Tamil Nadu","lat":8.7139126,"lon":77.7566523,"effective_literacy_rate_total":90.98,"rank":420.5},{"city":"Tirupati ","state_name":"Andhra Pradesh","lat":13.6287557,"lon":79.4191795,"effective_literacy_rate_total":87.55,"rank":303.5},{"city":"Tiruppur ","state_name":"Tamil Nadu","lat":11.1085242,"lon":77.3410656,"effective_literacy_rate_total":87.67,"rank":310.0},{"city":"Tiruvannamalai ","state_name":"Tamil Nadu","lat":12.2252841,"lon":79.0746957,"effective_literacy_rate_total":81.64,"rank":118.0},{"city":"Tiruvottiyur ","state_name":"Tamil Nadu","lat":13.1691914,"lon":80.3045793,"effective_literacy_rate_total":88.21,"rank":328.0},{"city":"Titagarh ","state_name":"West Bengal","lat":22.7382665,"lon":88.3737064,"effective_literacy_rate_total":81.18,"rank":109.0},{"city":"Tonk ","state_name":"Rajasthan","lat":26.1620402,"lon":75.7894716,"effective_literacy_rate_total":69.47,"rank":9.0},{"city":"Tumkur ","state_name":"Karnataka","lat":13.3709627,"lon":76.6412712,"effective_literacy_rate_total":85.97,"rank":247.5},{"city":"Udaipur ","state_name":"Rajasthan","lat":24.585445,"lon":73.712479,"effective_literacy_rate_total":90.66,"rank":409.0},{"city":"Udgir ","state_name":"Maharashtra","lat":18.3942882,"lon":77.1126009,"effective_literacy_rate_total":85.78,"rank":239.0},{"city":"Udupi ","state_name":"Karnataka","lat":13.3408807,"lon":74.7421427,"effective_literacy_rate_total":93.89,"rank":476.0},{"city":"Ujjain ","state_name":"Madhya Pradesh","lat":23.1793013,"lon":75.7849097,"effective_literacy_rate_total":85.55,"rank":230.0},{"city":"Ulhasnagar ","state_name":"Maharashtra","lat":19.2215115,"lon":73.1644628,"effective_literacy_rate_total":89.21,"rank":364.0},{"city":"Uluberia ","state_name":"West Bengal","lat":22.4744363,"lon":88.1000377,"effective_literacy_rate_total":81.13,"rank":107.0},{"city":"Unnao ","state_name":"Uttar Pradesh","lat":26.5393449,"lon":80.4878195,"effective_literacy_rate_total":83.72,"rank":174.0},{"city":"Uttarpara Kotrung ","state_name":"West Bengal","lat":22.6768451,"lon":88.3385053,"effective_literacy_rate_total":91.16,"rank":428.5},{"city":"Vadodara ","state_name":"Gujarat","lat":22.3071588,"lon":73.1812187,"effective_literacy_rate_total":92.37,"rank":453.0},{"city":"Valsad ","state_name":"Gujarat","lat":20.5992349,"lon":72.9342451,"effective_literacy_rate_total":92.7,"rank":458.0},{"city":"Varanasi ","state_name":"Uttar Pradesh","lat":25.3176452,"lon":82.9739144,"effective_literacy_rate_total":80.12,"rank":88.0},{"city":"Vasai Virar City ","state_name":"Maharashtra","lat":19.3919275,"lon":72.8397317,"effective_literacy_rate_total":91.15,"rank":427.0},{"city":"Vellore ","state_name":"Tamil Nadu","lat":12.9165167,"lon":79.1324986,"effective_literacy_rate_total":86.67,"rank":272.0},{"city":"Veraval ","state_name":"Gujarat","lat":20.9158979,"lon":70.3628516,"effective_literacy_rate_total":78.0,"rank":58.0},{"city":"Vidisha ","state_name":"Madhya Pradesh","lat":23.5251102,"lon":77.8081363,"effective_literacy_rate_total":86.88,"rank":280.0},{"city":"Vijayawada ","state_name":"Andhra Pradesh","lat":16.5061743,"lon":80.6480153,"effective_literacy_rate_total":82.59,"rank":140.0},{"city":"Visakhapatnam","state_name":"Andhra Pradesh","lat":17.6868,"lon":83.2185,"effective_literacy_rate_total":82.66,"rank":143.0},{"city":"Vizianagaram ","state_name":"Andhra Pradesh","lat":18.1066576,"lon":83.3955506,"effective_literacy_rate_total":81.85,"rank":126.0},{"city":"Warangal ","state_name":"Andhra Pradesh","lat":17.9689008,"lon":79.5940544,"effective_literacy_rate_total":84.16,"rank":183.0},{"city":"Wardha ","state_name":"Maharashtra","lat":20.745319,"lon":78.6021946,"effective_literacy_rate_total":94.05,"rank":479.0},{"city":"Yamunanagar ","state_name":"Haryana","lat":30.1290485,"lon":77.2673901,"effective_literacy_rate_total":85.91,"rank":244.0},{"city":"Yavatmal ","state_name":"Maharashtra","lat":20.3887937,"lon":78.1204073,"effective_literacy_rate_total":91.81,"rank":444.0}]